City_ID,City,Lat,Lng,Max Temp,Humidity,Cloudiness,Wind Speed,Country,Date
0,atuona,-9.8,-139.0333,24.87,70,46,5.2,PF,1667771566
1,tasiilaq,65.6145,-37.6368,-6.63,83,87,2.46,GL,1667771567
2,rikitea,-23.1203,-134.9692,22.23,74,65,6.06,PF,1667771279
3,luderitz,-26.6481,15.1594,17.06,81,95,2.53,NA,1667771567
4,madang,-5.2246,145.7966,26.56,82,87,1.77,PG,1667771567
5,georgetown,5.4112,100.3354,27.35,90,20,1.54,MY,1667770998
6,voh,-20.9667,164.7,28.61,66,2,2.11,NC,1667771568
7,cidreira,-30.1811,-50.2056,17.18,81,2,6.32,BR,1667771568
8,mangan,27.5167,88.5333,15.57,43,1,2.53,IN,1667771568
9,bethel,41.3712,-73.414,21.42,82,100,0.45,US,1667771467
10,papara,-3.9839,-38.7273,26.22,77,76,2.09,BR,1667771569
11,albany,42.6001,-73.9662,21.36,84,59,0.45,US,1667770999
12,mataura,-46.1927,168.8643,16.48,43,5,3.38,NZ,1667771569
13,saint anthony,45.0205,-93.218,9.92,39,0,11.83,US,1667771570
14,changping,40.2186,116.2197,1.8,52,4,3.38,CN,1667771570
15,longyearbyen,78.2186,15.6401,-0.09,74,75,6.69,SJ,1667771288
16,kununurra,-15.7667,128.7333,25.99,78,13,0.0,AU,1667771520
17,makakilo city,21.3469,-158.0858,29.18,58,40,6.17,US,1667771570
18,vaini,-21.2,-175.2,26.09,65,20,3.09,TO,1667771571
19,hithadhoo,-0.6,73.0833,27.39,76,72,5.37,MV,1667771571
20,vila franca do campo,37.7167,-25.4333,18.23,81,29,3.8,PT,1667771571
21,dicabisagan,17.0818,122.4157,24.29,92,60,1.42,PH,1667771572
22,ushuaia,-54.8,-68.3,8.81,81,40,2.06,AR,1667771572
23,kaeo,-35.1,173.7833,18.51,71,78,6.68,NZ,1667771572
24,ponta do sol,32.6667,-17.1,21.35,88,57,1.54,PT,1667771573
25,sola,-13.8833,167.55,25.37,94,79,0.0,VU,1667771573
26,tuatapere,-46.1333,167.6833,15.83,53,22,3.89,NZ,1667771573
27,hobart,-42.8794,147.3294,14.03,89,40,0.67,AU,1667770809
28,sitka,57.0531,-135.33,0.94,32,0,9.26,US,1667771574
29,airai,-8.9266,125.4092,16.5,74,97,0.93,TL,1667771574
30,topolovgrad,42.0833,26.3333,14.85,81,100,4.68,BG,1667771574
31,dikson,73.5069,80.5464,-13.08,92,100,3.64,RU,1667771575
32,cape town,-33.9258,18.4232,18.38,74,0,7.2,ZA,1667771447
33,east london,-33.0153,27.9116,19.44,77,55,7.46,ZA,1667771575
34,bluff,-46.6,168.3333,13.59,61,31,5.91,NZ,1667771575
35,avarua,-21.2078,-159.775,26.03,61,75,3.09,CK,1667771576
36,punta arenas,-53.15,-70.9167,16.06,44,0,7.72,CL,1667771499
37,kemijarvi,66.7131,27.4306,0.24,99,100,0.64,FI,1667771576
38,puerto ayora,-0.7393,-90.3518,23.98,73,93,6.67,EC,1667771577
39,dudinka,69.4058,86.1778,-5.21,96,100,4.19,RU,1667771577
40,kapaa,22.0752,-159.319,27.99,77,75,5.66,US,1667771577
41,kokkola,63.8385,23.1307,7.09,94,100,3.09,FI,1667771577
42,cabo san lucas,22.8909,-109.9124,28.67,62,0,3.31,MX,1667771498
43,quesnel,52.9999,-122.5029,-8.72,73,0,7.72,CA,1667771578
44,salalah,17.0151,54.0924,26.05,78,0,2.57,OM,1667771297
45,chokurdakh,70.6333,147.9167,-14.96,93,100,7.82,RU,1667771578
46,maridi,4.9158,29.4742,19.85,90,100,0.59,SS,1667771579
47,new norfolk,-42.7826,147.0587,14.4,60,25,1.12,AU,1667771579
48,cayenne,4.9333,-52.3333,25.02,94,20,0.0,GF,1667771579
49,lufilufi,-13.8745,-171.5986,30.88,76,44,6.52,WS,1667771580
50,barrow,71.2906,-156.7887,-7.99,79,100,8.75,US,1667771580
51,oktyabrskoye,43.0645,44.7417,2.08,93,95,6.0,RU,1667771580
52,san cristobal,7.7669,-72.225,26.1,93,81,1.29,VE,1667771581
53,anshun,26.25,105.9333,10.64,94,3,1.0,CN,1667771581
54,norman wells,65.282,-126.8329,-11.98,72,40,5.66,CA,1667771404
55,qaanaaq,77.484,-69.3632,-16.71,91,100,1.89,GL,1667771581
56,rawson,-43.3002,-65.1023,30.16,25,20,12.35,AR,1667771582
57,chambersburg,39.9376,-77.6611,23.19,84,64,4.47,US,1667771581
58,kuala kedah,6.1,100.3,26.1,94,20,1.03,MY,1667771582
59,pravdinsk,54.4429,21.0179,4.55,87,8,3.93,RU,1667771583
60,provideniya,64.3833,-173.3,1.06,100,100,4.02,RU,1667771583
61,bredasdorp,-34.5322,20.0403,18.22,88,100,1.61,ZA,1667771402
62,mezhova,48.2532,36.7347,0.91,81,97,3.05,UA,1667771584
63,santo antonio do ica,-3.1022,-67.9397,26.95,72,97,0.64,BR,1667771584
64,agirish,61.9247,63.0231,-8.33,97,66,1.7,RU,1667771585
65,ghanzi,-21.5667,21.7833,21.78,62,83,5.98,BW,1667771585
66,santa cruz de tenerife,28.4682,-16.2546,21.04,92,40,2.06,ES,1667771586
67,castro,-24.7911,-50.0119,12.93,77,91,2.58,BR,1667771586
68,beruwala,6.4788,79.9828,23.9,90,90,1.86,LK,1667771586
69,kushiro,42.975,144.3747,2.76,74,0,1.52,JP,1667771587
70,lake havasu city,34.4839,-114.3224,25.68,19,0,5.66,US,1667771587
71,bambous virieux,-20.3428,57.7575,22.14,78,20,2.06,MU,1667771587
72,bogorodskoye,56.55,37.8833,0.15,85,100,4.73,RU,1667771589
73,jamestown,42.097,-79.2353,20.8,64,75,5.14,US,1667771590
74,chuy,-33.6971,-53.4616,15.85,80,11,4.57,UY,1667771197
75,linhares,-19.3911,-40.0722,19.43,80,89,1.79,BR,1667771590
76,arraial do cabo,-22.9661,-42.0278,21.98,64,40,4.12,BR,1667771591
77,kaitangata,-46.2817,169.8464,15.66,46,2,3.3,NZ,1667771591
78,kloulklubed,7.0419,134.2556,24.28,72,52,1.36,PW,1667771592
79,port hardy,50.6996,-127.4199,3.1,93,75,8.75,CA,1667771592
80,carnarvon,-24.8667,113.6333,19.0,76,100,7.55,AU,1667771592
81,westerly,41.3776,-71.8273,22.07,89,100,4.12,US,1667771593
82,hermanus,-34.4187,19.2345,20.45,81,100,3.48,ZA,1667771593
83,pisco,-13.7,-76.2167,21.03,60,0,2.57,PE,1667771593
84,havre-saint-pierre,50.2334,-63.5986,8.2,93,100,4.63,CA,1667771594
85,busselton,-33.65,115.3333,13.86,83,79,4.62,AU,1667771594
86,nikolskoye,59.7035,30.7861,3.94,96,100,3.63,RU,1667771595
87,pevek,69.7008,170.3133,-7.89,80,76,8.64,RU,1667771595
88,mandalgovi,45.7625,106.2708,-3.24,47,0,3.38,MN,1667771595
89,danielskuil,-28.1887,23.5395,22.22,22,78,2.5,ZA,1667771596
90,kihei,20.785,-156.4656,31.01,65,20,9.77,US,1667771596
91,yellowknife,62.456,-114.3525,-15.71,66,40,4.63,CA,1667771598
92,bengkulu,-3.8004,102.2655,24.18,87,100,2.26,ID,1667771598
93,ribeira grande,38.5167,-28.7,18.76,77,20,7.72,PT,1667771598
94,hashtrud,37.4779,47.0508,4.28,80,4,2.25,IR,1667771599
95,port elizabeth,-33.918,25.5701,21.17,90,0,8.23,ZA,1667771547
96,balikpapan,-1.2675,116.8289,25.55,100,20,3.09,ID,1667771162
97,nome,64.5011,-165.4064,-0.47,95,100,7.51,US,1667771599
98,west wendover,40.7391,-114.0733,7.56,57,100,2.57,US,1667771600
99,road town,18.4167,-64.6167,29.02,89,75,8.75,VG,1667771600
100,riyadh,24.6877,46.7219,26.08,31,31,1.17,SA,1667771321
101,constitucion,-35.3333,-72.4167,14.71,73,100,6.78,CL,1667771601
102,hasaki,35.7333,140.8333,6.22,54,100,4.14,JP,1667771601
103,yuyao,30.05,121.1494,9.87,88,0,1.51,CN,1667771601
104,hilo,19.7297,-155.09,26.85,77,75,2.57,US,1667771440
105,qasigiannguit,68.8193,-51.1922,-17.62,96,49,2.64,GL,1667771602
106,morondava,-20.2833,44.2833,26.31,73,80,2.51,MG,1667771463
107,borgarnes,64.5383,-21.9206,4.03,71,0,3.21,IS,1667771603
108,ola,59.5833,151.2833,-4.92,87,100,4.12,RU,1667771603
109,saint-philippe,-21.3585,55.7679,21.77,86,57,4.25,RE,1667771603
110,svetlogorsk,52.6333,29.7333,5.52,92,100,3.68,BY,1667771604
111,boa vista,2.8197,-60.6733,24.99,83,75,2.06,BR,1667771604
112,yumen,40.2833,97.2,0.46,41,11,4.23,CN,1667771605
113,haverfordwest,51.8017,-4.9691,12.54,90,52,2.68,GB,1667771605
114,spornoye,50.8448,37.2913,0.42,82,99,3.01,RU,1667771605
115,janesville,42.6828,-89.0187,14.38,62,39,2.24,US,1667771507
116,torbay,47.6666,-52.7314,9.31,96,100,5.66,CA,1667771606
117,dali,25.7,100.1833,8.48,87,0,1.65,CN,1667771606
118,mogadouro,41.3403,-6.7119,8.47,89,100,1.45,PT,1667771607
119,puerto del rosario,28.5004,-13.8627,22.86,78,75,6.17,ES,1667771607
120,kralendijk,12.15,-68.2667,28.99,74,0,2.06,BQ,1667771608
121,celestun,20.8667,-90.4,27.93,65,29,6.7,MX,1667771608
122,trelew,-43.249,-65.3051,30.15,25,20,12.35,AR,1667771608
123,totness,5.8833,-56.3167,26.33,82,36,3.39,SR,1667771609
124,haga,52.0767,4.2986,11.65,92,75,8.23,NL,1667771609
125,los llanos de aridane,28.6585,-17.9182,19.51,84,75,3.6,ES,1667771609
126,acapulco,16.8634,-99.8901,29.9,70,0,4.12,MX,1667771387
127,talaya,61.3833,152.75,-19.34,98,98,1.88,RU,1667771610
128,gizo,-8.103,156.8419,28.32,72,100,2.35,SB,1667771610
129,cherskiy,68.75,161.3,-17.35,96,98,1.48,RU,1667771611
130,aklavik,68.2191,-135.0107,-18.75,87,21,2.68,CA,1667771611
131,dakar,14.6937,-17.4441,26.49,89,0,0.0,SN,1667771612
132,butaritari,3.0707,172.7902,26.19,75,38,2.65,KI,1667771612
133,bartica,6.4,-58.6167,27.18,92,95,1.98,GY,1667771613
134,portage,41.1667,-81.1998,20.62,63,29,0.89,US,1667771613
135,westerland,54.9079,8.3033,9.01,93,100,11.32,DE,1667771613
136,ilulissat,69.2167,-51.1,-17.97,95,51,3.03,GL,1667771614
137,santa marta,11.2408,-74.199,27.72,72,75,6.69,CO,1667771472
138,lompoc,34.6391,-120.4579,25.38,78,100,6.69,US,1667771614
139,viedma,-40.8135,-62.9967,28.65,21,20,8.14,AR,1667771428
140,sao filipe,14.8961,-24.4956,26.05,68,0,2.38,CV,1667771615
141,bull savanna,17.8868,-77.5902,25.67,65,8,2.47,JM,1667771615
142,pacific grove,36.6177,-121.9166,18.34,67,0,3.09,US,1667771615
143,tautira,-17.7333,-149.15,24.66,87,98,9.69,PF,1667771616
144,kiama,-34.6833,150.8667,21.81,71,81,2.24,AU,1667771616
145,cockburn town,21.4612,-71.1419,23.98,78,40,5.14,TC,1667771616
146,charlestown,-32.95,151.6667,20.62,85,5,2.68,AU,1667771325
147,esperance,-33.8667,121.9,15.11,90,100,7.06,AU,1667771617
148,urusha,54.05,122.9,-14.15,97,41,0.7,RU,1667771617
149,kodiak,57.79,-152.4072,0.19,57,97,4.22,US,1667771617
150,nsoko,-27.0333,31.95,18.92,89,29,1.58,SZ,1667771618
151,margate,51.3813,1.3862,11.73,90,25,2.24,GB,1667771618
152,upernavik,72.7868,-56.1549,-11.41,81,81,2.66,GL,1667771618
153,zomin,39.9606,68.3958,12.62,46,100,2.12,UZ,1667771618
154,corinto,37.9407,22.9573,16.05,83,91,2.07,GR,1667771619
155,verkhoyansk,67.5447,133.385,-18.71,98,100,1.97,RU,1667771619
156,san patricio,28.017,-97.5169,29.54,68,79,5.36,US,1667771619
157,tilichiki,60.4667,166.1,-6.95,96,85,3.58,RU,1667771620
158,victoria,22.2855,114.1577,21.25,90,100,4.47,HK,1667770888
159,seoul,37.5683,126.9778,7.69,97,20,0.51,KR,1667771620
160,flinders,-34.5833,150.8552,21.7,76,76,1.79,AU,1667771620
161,nanortalik,60.1432,-45.2371,0.04,91,75,1.26,GL,1667771621
162,nanzhang,31.7765,111.8386,14.42,78,6,0.77,CN,1667771621
163,asekeyevo,53.5742,52.7972,-8.79,98,56,1.22,RU,1667771621
164,verkhnevilyuysk,63.4453,120.3167,-30.82,100,24,1.02,RU,1667771622
165,leningradskiy,69.3833,178.4167,-8.33,79,4,4.18,RU,1667771622
166,burgeo,47.6167,-57.6152,11.14,97,100,1.67,CA,1667771622
167,port alfred,-33.5906,26.891,18.99,86,42,2.68,ZA,1667771623
168,boyuibe,-20.4167,-63.2833,27.66,23,1,2.7,BO,1667771623
169,aykhal,66.0,111.5,-24.38,100,100,2.43,RU,1667771623
170,sangar,63.9242,127.4739,-32.62,100,100,1.72,RU,1667771624
171,talnakh,69.4865,88.3972,-5.44,96,100,3.41,RU,1667771624
172,lorengau,-2.0226,147.2712,28.42,74,97,1.39,PG,1667771624
173,korla,41.7597,86.1469,9.37,38,100,2.4,CN,1667771625
174,axim,4.8699,-2.2405,25.39,86,41,2.0,GH,1667771625
175,hambantota,6.1241,81.1185,23.19,100,20,0.51,LK,1667771625
176,beringovskiy,63.05,179.3167,-1.54,95,100,2.11,RU,1667771626
177,deputatskiy,69.3,139.9,-19.88,88,100,8.99,RU,1667771626
178,ancud,-41.8697,-73.8203,12.49,70,92,2.65,CL,1667771626
179,saldanha,-33.0117,17.9442,17.03,91,100,2.9,ZA,1667771627
180,ratnagiri,16.9833,73.3,24.4,60,86,2.22,IN,1667771627
181,loanda,-8.8368,13.2343,26.0,83,40,4.12,AO,1667771627
182,mar del plata,-38.0023,-57.5575,20.46,82,0,11.62,AR,1667771628
183,port lincoln,-34.7333,135.8667,19.57,63,5,5.37,AU,1667771628
184,fortuna,40.5982,-124.1573,11.63,93,100,4.02,US,1667771349
185,boyabat,41.4689,34.7667,10.57,83,100,0.54,TR,1667771629
186,athabasca,54.7169,-113.2854,-11.04,57,100,4.3,CA,1667771629
187,hamada,34.8833,132.0833,11.03,80,21,1.45,JP,1667771629
188,hay river,60.8156,-115.7999,-12.01,79,75,7.2,CA,1667771577
189,lasa,46.6166,10.7002,2.98,58,96,1.17,IT,1667771630
190,khatanga,71.9667,102.5,-26.92,98,38,2.43,RU,1667771630
191,beith,55.7492,-4.6368,10.28,88,87,1.54,GB,1667771630
192,pangnirtung,66.1451,-65.7125,-10.0,62,20,2.57,CA,1667771631
193,skegness,53.1436,0.3363,9.63,84,32,10.21,GB,1667771631
194,tuktoyaktuk,69.4541,-133.0374,-13.0,85,100,5.66,CA,1667771631
195,saskylakh,71.9167,114.0833,-31.21,100,48,1.24,RU,1667771632
196,monrovia,6.3005,-10.7969,25.0,86,14,1.9,LR,1667771520
197,namibe,-15.1961,12.1522,20.69,66,0,2.69,AO,1667771632
198,batagay-alyta,67.8006,130.4114,-18.27,97,100,1.15,RU,1667771632
199,shahrud,36.4182,54.9763,7.32,71,58,5.02,IR,1667771633
200,bani,18.2833,-70.3333,28.69,76,2,4.23,DO,1667771633
201,pimentel,-6.8367,-79.9342,21.16,64,0,8.23,PE,1667771633
202,alofi,-19.0595,-169.9187,26.94,61,4,5.14,NU,1667771634
203,port blair,11.6667,92.75,26.88,76,100,4.62,IN,1667771634
204,coihaique,-45.5752,-72.0662,15.97,44,75,4.63,CL,1667771634
205,clyde river,70.4692,-68.5914,-18.87,65,0,1.54,CA,1667771635
206,antofagasta,-23.65,-70.4,16.6,77,37,3.13,CL,1667770936
207,mahebourg,-20.4081,57.7,22.16,78,20,2.06,MU,1667771635
208,liberal,37.0431,-100.921,18.08,25,0,7.2,US,1667771636
209,hidrolandia,-4.4081,-40.4378,26.93,67,85,1.11,BR,1667771636
210,saint-joseph,-21.3667,55.6167,21.21,84,53,3.54,RE,1667771636
211,cocorit,27.5833,-109.9667,30.0,18,0,4.45,MX,1667771636
212,north bend,43.4065,-124.2243,8.93,96,100,2.06,US,1667771637
213,kudat,6.8837,116.8477,24.05,100,20,1.03,MY,1667771637
214,san ignacio,17.1561,-89.0714,33.08,55,40,3.09,BZ,1667771637
215,shepsi,44.0361,39.1489,9.62,68,20,4.23,RU,1667771638
216,plon,54.1667,10.4167,9.94,70,100,6.63,DE,1667771638
217,meulaboh,4.1363,96.1285,24.35,88,98,1.95,ID,1667771638
218,boulder city,35.9786,-114.8325,21.63,18,0,6.17,US,1667771639
219,kurilsk,45.2333,147.8833,4.5,66,99,4.99,RU,1667771639
220,severo-kurilsk,50.6789,156.125,2.33,84,66,13.94,RU,1667771639
221,limulunga,-15.0969,23.1376,20.66,82,92,1.61,ZM,1667771640
222,pringsewu,-5.3582,104.9744,22.56,97,100,1.1,ID,1667771640
223,san felipe,10.3399,-68.7425,24.37,85,70,0.93,VE,1667771640
224,santa maria,-29.6842,-53.8069,23.61,41,40,8.23,BR,1667771641
225,murgab,37.4966,61.9714,12.93,94,75,4.12,TM,1667771641
226,belaya gora,68.5333,146.4167,-16.79,93,100,4.88,RU,1667771642
227,kabinda,-6.1333,24.4833,18.48,96,89,0.96,CD,1667771642
228,sangin,32.0728,64.8359,13.32,57,0,2.63,AF,1667771642
229,okhotsk,59.3833,143.3,-12.27,65,70,2.84,RU,1667771643
230,moquegua,-17.1956,-70.9353,20.98,39,0,2.98,PE,1667771643
231,molina,-35.1167,-71.2833,24.85,41,0,3.6,CL,1667771644
232,fairbanks,64.8378,-147.7164,-11.54,83,0,0.0,US,1667771132
233,usoke,-5.1667,32.35,21.41,64,88,0.68,TZ,1667771644
234,berlevag,70.8578,29.0864,3.0,75,0,3.6,NO,1667771644
235,gambela,8.25,34.5833,21.82,85,87,1.33,ET,1667771645
236,sobolevo,54.4299,31.8996,1.56,98,100,3.96,RU,1667771645
237,camacha,33.0833,-16.3333,17.68,77,40,1.54,PT,1667771646
238,udomlya,57.8794,34.9925,0.35,96,100,2.91,RU,1667771646
239,kholtoson,50.2981,103.3097,-8.02,87,81,1.87,RU,1667771646
240,evensk,61.95,159.2333,-1.04,97,100,3.36,RU,1667771647
241,esik,43.3552,77.4525,2.68,81,100,1.0,KZ,1667771647
242,manzhouli,49.6,117.4333,-8.6,90,7,2.76,CN,1667771647
243,kruisfontein,-34.0033,24.7314,19.94,83,97,3.93,ZA,1667771648
244,rogovatoye,51.23,38.3818,-0.39,83,88,2.54,RU,1667771648
245,haines junction,60.7522,-137.5108,-10.03,48,5,2.06,CA,1667771648
246,requena,39.4883,-1.1004,11.96,36,64,1.84,ES,1667771649
247,general roca,-39.0333,-67.5833,33.12,14,42,8.54,AR,1667771649
248,odienne,9.51,-7.5692,22.59,82,98,1.54,CI,1667771650
249,kavieng,-2.5744,150.7967,29.05,68,100,2.71,PG,1667771650
250,tual,-5.6667,132.75,28.91,74,77,5.26,ID,1667771651
251,tokur,53.1333,132.9,-11.55,92,100,1.91,RU,1667771651
252,sebring,27.4956,-81.4409,27.04,81,40,6.69,US,1667771590
253,mahibadhoo,3.7833,72.9667,27.07,78,18,5.44,MV,1667771651
254,la tuque,47.4334,-72.7824,18.14,45,100,3.6,CA,1667771652
255,coquimbo,-29.9533,-71.3436,16.85,72,20,6.17,CL,1667771597
256,wakiso,0.4044,32.4594,20.75,96,91,1.19,UG,1667771652
257,barra patuca,15.8,-84.2833,27.48,71,100,3.56,HN,1667771653
258,caohai,26.8661,104.2841,6.3,96,1,1.93,CN,1667771653
259,briceni,48.3572,27.7036,9.26,73,100,5.17,MD,1667771654
260,mecca,21.4267,39.8261,25.05,57,0,1.32,SA,1667771464
261,kamaishi,39.2667,141.8833,9.15,72,46,2.86,JP,1667771654
262,vostok,46.4856,135.8833,-6.09,68,4,2.15,RU,1667771655
263,port hedland,-20.3167,118.5667,22.03,78,75,5.66,AU,1667771655
264,bourail,-21.5667,165.4833,27.16,71,27,2.95,NC,1667771656
265,carutapera,-1.195,-46.02,25.81,80,78,2.92,BR,1667771656
266,broken hill,-31.95,141.4333,19.82,49,2,3.73,AU,1667771656
267,nouadhibou,20.931,-17.0347,22.99,64,0,4.63,MR,1667771657
268,porto velho,-8.7619,-63.9039,32.03,55,28,0.0,BR,1667771411
269,gornopravdinsk,60.05,69.9,-5.36,95,98,2.2,RU,1667771657
270,barvinkove,48.9097,37.0205,1.55,80,88,2.99,UA,1667771658
271,latung,5.5,120.8833,28.21,75,100,2.1,PH,1667771658
272,yulara,-25.2406,130.9889,26.6,17,88,2.98,AU,1667771658
273,umtata,-31.5889,28.7844,15.7,90,90,2.02,ZA,1667771659
274,along,28.1667,94.7667,13.97,83,8,0.81,IN,1667771659
275,vardo,70.3705,31.1107,1.99,80,75,4.12,NO,1667771659
276,sabha,27.0377,14.4283,16.98,21,0,4.04,LY,1667771660
277,sioux city,42.5,-96.4003,11.03,25,17,6.71,US,1667771660
278,saurimo,-9.6608,20.3916,18.07,98,55,1.84,AO,1667771661
279,northam,51.0333,-4.2167,10.9,91,60,9.36,GB,1667771661
280,ugoofaaru,5.6667,73.0,26.99,74,85,2.5,MV,1667771661
281,eureka,40.8021,-124.1637,12.08,93,99,4.02,US,1667771662
282,barranca,-10.75,-77.7667,18.4,75,22,3.79,PE,1667771420
283,aranda de duero,41.6704,-3.6892,10.89,87,100,2.15,ES,1667771662
284,tiksi,71.6872,128.8694,-16.8,93,100,9.39,RU,1667771663
285,tateyama,34.9833,139.8667,17.06,59,100,3.28,JP,1667771663
286,pajan,-1.5667,-80.4167,29.14,50,14,2.04,EC,1667771663
287,salinopolis,-0.6136,-47.3561,27.07,77,98,4.26,BR,1667771664
288,praya,14.9215,-23.5087,25.3,78,0,5.66,CV,1667771664
289,garowe,8.4054,48.4845,23.31,73,7,5.15,SO,1667771665
290,berdigestyakh,62.0989,126.6992,-32.04,100,80,1.56,RU,1667771665
291,pemangkat,1.1667,108.9667,24.4,91,100,3.08,ID,1667771665
292,aviles,43.5547,-5.9248,15.66,71,20,3.09,ES,1667771666
293,inuvik,68.3499,-133.7218,-12.44,82,75,3.09,CA,1667771666
294,diamantino,-14.4086,-56.4461,27.7,37,7,0.78,BR,1667771667
295,solhan,38.9634,41.0293,6.46,53,0,1.54,TR,1667771667
296,bambanglipuro,-7.95,110.2833,24.78,89,100,1.21,ID,1667771667
297,cyangugu,-2.4846,28.9075,15.35,94,100,0.38,RW,1667771668
298,hakui,36.8833,136.7833,9.08,72,95,1.52,JP,1667771668
299,sioux lookout,50.1001,-91.917,2.04,87,100,4.12,CA,1667771668
300,leh,34.1667,77.5833,-0.82,71,100,1.59,IN,1667771571
301,bathsheba,13.2167,-59.5167,27.34,83,40,5.66,BB,1667771669
302,jacareacanga,-6.2222,-57.7528,27.91,63,100,1.27,BR,1667771497
303,launceston,-41.45,147.1667,16.2,81,21,0.51,AU,1667771669
304,tigil,57.8,158.6667,-14.03,93,39,1.26,RU,1667771670
305,yudong,29.385,106.5194,19.72,75,8,0.42,CN,1667771670
306,padang,-0.9492,100.3543,23.03,86,100,1.23,ID,1667771671
307,vanimo,-2.6741,141.3028,26.69,83,99,1.31,PG,1667771671
308,lloydminster,53.2835,-110.0016,-12.88,66,100,7.72,CA,1667771671
309,sur,22.5667,59.5289,26.6,66,91,3.53,OM,1667771672
310,itarema,-2.9248,-39.9167,26.18,77,91,6.1,BR,1667771672
311,bilibino,68.0546,166.4372,-13.74,93,99,1.68,RU,1667771672
312,nantucket,41.2835,-70.0995,18.06,94,0,4.63,US,1667771520
313,rocha,-34.4833,-54.3333,15.84,76,7,4.99,UY,1667771673
314,waitara,-38.925,174.25,15.12,79,100,3.66,NZ,1667771673
315,vucje,42.8653,21.9114,10.97,95,98,0.62,RS,1667771674
316,flin flon,54.7682,-101.865,-6.09,79,100,8.75,CA,1667771674
317,tura,25.5198,90.2201,18.5,88,0,1.38,IN,1667771674
318,fensmark,55.2792,11.8038,10.14,71,100,8.4,DK,1667771675
319,ebetsu,43.1081,141.5506,2.84,64,35,1.78,JP,1667771675
320,pangkalanbuun,-2.6833,111.6167,22.5,99,100,1.14,ID,1667771675
321,caravelas,-17.7125,-39.2481,22.58,66,100,4.35,BR,1667771676
322,kieta,-6.2167,155.6333,25.73,89,98,2.94,PG,1667771676
323,shaunavon,49.6501,-108.4181,-10.12,84,98,6.73,CA,1667771676
324,pincher creek,49.4833,-113.952,-10.94,82,100,4.12,CA,1667771677
325,te anau,-45.4167,167.7167,12.54,62,62,2.51,NZ,1667771677
326,marzuq,14.4,46.4667,18.77,74,0,1.96,YE,1667771677
327,oudtshoorn,-33.5907,22.2014,16.2,66,97,1.2,ZA,1667771678
328,upata,8.0086,-62.3989,23.87,83,100,1.73,VE,1667771678
329,bressanone,46.715,11.656,10.81,77,99,0.68,IT,1667771678
330,nativitas,19.2333,-98.3167,23.25,35,4,2.26,MX,1667771679
331,pachino,36.7186,15.0907,17.57,64,0,1.97,IT,1667771679
332,kavaratti,10.5669,72.642,27.34,75,0,2.35,IN,1667771679
333,leshukonskoye,64.8989,45.7622,-2.73,90,98,3.75,RU,1667771680
334,hervey bay,-25.2986,152.8535,22.08,56,7,6.92,AU,1667771680
335,asau,46.4333,26.4,11.51,93,100,1.52,RO,1667771680
336,homa bay,-0.5273,34.4571,19.57,82,97,0.45,KE,1667771680
337,souillac,-20.5167,57.5167,22.21,78,20,2.06,MU,1667771681
338,vestmannaeyjar,63.4427,-20.2734,5.59,68,24,5.01,IS,1667771681
339,terme,41.2092,36.9739,15.25,75,100,2.99,TR,1667771681
340,gat,31.61,34.7642,21.38,100,4,1.39,IL,1667771682
341,araouane,18.9048,-3.5265,26.0,16,0,3.86,ML,1667771682
342,satipo,-11.2522,-74.6386,26.52,59,68,0.04,PE,1667771682
343,freeport,40.6576,-73.5832,22.77,82,99,6.26,US,1667771599
344,saint george,37.1041,-113.5841,20.53,27,0,2.57,US,1667771683
345,ruteng,-8.6136,120.4721,17.2,91,95,0.63,ID,1667771683
346,ilheus,-14.7889,-39.0494,24.9,78,75,4.63,BR,1667771329
347,thompson,55.7435,-97.8558,-4.91,86,100,6.17,CA,1667771555
348,zheleznodorozhnyy,55.7503,38.0042,0.34,86,100,3.77,RU,1667771684
349,mount gambier,-37.8333,140.7667,17.9,67,6,1.82,AU,1667771684
350,ambon,-3.6954,128.1814,25.08,16,40,2.57,ID,1667771684
351,muros,42.7762,-9.0603,16.19,72,28,6.01,ES,1667771685
352,atakpame,7.5333,1.1333,24.65,73,62,1.69,TG,1667771685
353,dharchula,29.85,80.5333,13.65,46,95,2.9,IN,1667771685
354,labuhan,-6.8844,112.2051,25.66,83,100,1.82,ID,1667771686
355,manadhoo,5.7667,73.3833,26.84,73,86,1.61,MV,1667771686
356,vila velha,-20.3297,-40.2925,22.97,81,20,4.63,BR,1667771686
357,fort nelson,58.8053,-122.7002,-14.23,66,75,4.12,CA,1667771687
358,valleyview,55.0667,-117.2859,-14.98,72,100,4.63,CA,1667771687
359,roma,43.2128,-75.4557,22.75,87,50,4.39,US,1667771687
360,asyut,27.181,31.1837,18.1,35,1,2.44,EG,1667771688
361,jieshi,22.8134,115.8257,20.05,83,86,5.42,CN,1667771688
362,santa luzia,-19.7697,-43.8514,24.5,48,20,5.14,BR,1667771688
363,odesskoye,54.2111,72.9651,-1.48,88,93,3.92,RU,1667771689
364,dingle,10.9995,122.6711,24.33,93,73,2.66,PH,1667771689
365,weligama,5.9667,80.4167,24.19,87,59,0.27,LK,1667771689
366,faanui,-16.4833,-151.75,25.54,82,100,11.42,PF,1667771689
367,madera,37.1666,-119.8343,18.03,62,100,1.34,US,1667771690
368,doha,25.2867,51.5333,28.94,58,0,3.09,QA,1667771653
369,udachnyy,66.4167,112.4,-29.56,100,92,1.69,RU,1667771690
370,jiuquan,39.7432,98.5174,0.11,42,71,0.86,CN,1667771691
371,isangel,-19.55,169.2667,29.06,84,75,2.06,VU,1667771691
372,estelle,29.8458,-90.1067,28.0,70,40,5.14,US,1667771691
373,cuajinicuilapa,16.4667,-98.4167,30.24,66,13,3.59,MX,1667771692
374,amahai,-3.3333,128.9167,26.63,80,100,1.24,ID,1667771692
375,san ramon,37.7799,-121.978,17.53,58,100,2.68,US,1667771692
376,chicama,-7.8447,-79.1469,18.3,69,7,3.91,PE,1667771693
377,paris,48.8534,2.3488,12.43,93,75,6.17,FR,1667771281
378,prince rupert,54.3161,-130.3201,2.05,37,0,7.2,CA,1667771693
379,abeche,13.8292,20.8324,27.36,20,4,3.46,TD,1667771693
380,ostrovnoy,68.0531,39.5131,0.17,96,100,7.63,RU,1667771694
381,bundaberg,-24.85,152.35,24.01,69,0,0.89,AU,1667771694
382,steinbach,50.1667,8.5667,9.86,76,75,4.63,DE,1667771694
383,maarianhamina,60.0973,19.9348,9.92,87,100,7.72,AX,1667771695
384,tazovskiy,67.4667,78.7,-6.6,96,100,3.13,RU,1667771695
385,sao joao da barra,-21.6403,-41.0511,23.05,72,0,4.41,BR,1667771695
386,chulym,55.0997,80.9572,-2.66,95,99,4.52,RU,1667771696
387,codrington,-38.2667,141.9667,16.6,75,3,1.02,AU,1667771696
388,bereda,43.2686,-7.5406,12.45,87,30,3.28,ES,1667771697
389,iqaluit,63.7506,-68.5145,-12.15,67,20,2.57,CA,1667771697
390,teya,60.3778,92.6267,-3.38,97,100,0.86,RU,1667771697
391,erenhot,43.6475,111.9767,-1.08,45,0,2.54,CN,1667771698
392,namatanai,-3.6667,152.4333,28.19,75,93,2.06,PG,1667771698
393,baruun-urt,46.6806,113.2792,-4.62,63,0,3.51,MN,1667771698
394,saint-augustin,51.226,-58.6502,6.13,99,100,0.79,CA,1667771699
395,fuerte olimpo,-21.0415,-57.8738,26.47,29,0,2.78,PY,1667771699
396,bristol,41.8334,-71.1662,23.39,77,100,4.02,US,1667771699
397,maragogi,-9.0122,-35.2225,24.4,90,89,4.95,BR,1667771700
398,svetlyy,54.675,20.1347,5.03,82,24,6.15,RU,1667771700
399,fort myers beach,26.452,-81.9481,30.57,65,97,4.02,US,1667771700
400,manta,-0.95,-80.7333,22.88,83,75,5.66,EC,1667771701
401,portland,45.5234,-122.6762,5.81,92,100,1.34,US,1667771064
402,galle,6.0367,80.217,24.98,83,52,0.3,LK,1667771701
403,hukuntsi,-24.0,21.75,18.39,83,100,6.94,BW,1667771701
404,laurel,39.0993,-76.8483,25.39,80,100,3.09,US,1667771312
405,osmena,10.5208,119.9258,28.11,78,98,6.75,PH,1667771702
406,natal,-5.795,-35.2094,27.36,73,20,7.72,BR,1667771675
407,astoria,46.1879,-123.8313,6.63,90,100,0.89,US,1667771703
408,salmo,49.1999,-117.2689,3.27,56,100,2.51,CA,1667771703
409,neftcala,39.3742,49.2472,11.6,73,100,9.81,AZ,1667771704
410,badarpur,24.9,92.6,19.53,87,0,1.21,IN,1667771704
411,mosquera,4.7059,-74.2302,12.05,94,75,3.6,CO,1667771360
412,aranos,-24.1333,19.1167,22.85,41,100,3.1,NA,1667771705
413,winchester,51.0651,-1.3187,12.74,89,20,4.12,GB,1667771705
414,lethem,3.3803,-59.7968,28.03,78,20,5.14,GY,1667771705
415,odweyne,9.4092,45.064,22.09,39,5,0.44,SO,1667771706
416,necochea,-38.5473,-58.7368,22.22,39,100,7.01,AR,1667771706
417,seydisehir,37.4193,31.8453,9.13,75,78,1.71,TR,1667771707
418,buraydah,26.326,43.975,21.25,60,26,3.3,SA,1667771465
419,sydney,-33.8679,151.2073,21.29,76,40,0.51,AU,1667771421
420,lavrentiya,65.5833,-171.0,1.19,98,100,5.28,RU,1667771707
421,la ronge,55.1001,-105.2842,-7.86,67,100,7.2,CA,1667771708
422,tremedal,-14.9758,-41.4108,22.13,63,97,4.15,BR,1667771708
423,adjuntas,18.1585,-66.8018,23.32,88,34,2.06,PR,1667771709
424,skelleftea,64.7507,20.9528,2.2,100,40,2.57,SE,1667771709
425,berbera,10.4396,45.0143,25.94,68,4,0.97,SO,1667771709
426,mahanoro,-19.9,48.8,21.17,89,84,2.07,MG,1667771710
427,parelhas,-6.6878,-36.6575,27.2,64,95,7.04,BR,1667771710
428,henties bay,-22.116,14.2845,21.25,57,100,6.86,NA,1667771710
429,marana,32.4367,-111.2254,29.19,14,0,2.06,US,1667771711
430,am timan,11.0297,20.2827,26.05,30,27,0.79,TD,1667771711
431,betare oya,5.6,14.0833,19.92,73,100,1.67,CM,1667771712
432,yakima,46.4665,-120.6678,7.14,78,100,1.54,US,1667771139
433,lakhdenpokhya,61.5198,30.1992,5.03,95,100,5.31,RU,1667771712
434,puerto escondido,15.85,-97.0667,29.03,75,55,1.91,MX,1667771504
435,porto santo,33.072,-16.3415,19.21,77,40,1.54,PT,1667771713
436,taperoa,-7.2075,-36.8267,23.51,79,89,5.48,BR,1667771714
437,kyshtovka,56.555,76.6271,-2.13,92,99,4.34,RU,1667771714
438,longavi,-35.9667,-71.6833,25.63,30,100,3.12,CL,1667771715
439,nouakchott,18.0858,-15.9785,22.96,51,80,4.71,MR,1667771715
440,oktyabrskiy,54.4815,53.471,-7.5,96,54,1.62,RU,1667771716
441,kindersley,51.4668,-109.1682,-10.99,73,100,7.2,CA,1667771716
442,saint-georges,12.0564,-61.7485,28.82,79,20,6.69,GD,1667771444
443,cap malheureux,-19.9842,57.6142,20.82,76,83,5.91,MU,1667771717
444,gimli,50.6336,-96.9907,1.01,80,100,1.03,CA,1667771717
445,bayan,46.0833,127.4,-1.55,73,73,1.6,CN,1667771718
446,peace river,56.2501,-117.286,-11.83,61,40,5.66,CA,1667771718
447,teguldet,57.3064,88.1667,-2.11,88,100,5.96,RU,1667771718
448,novoagansk,61.9449,76.6625,-10.14,99,98,1.45,RU,1667771719
449,houston,29.7633,-95.3633,29.5,74,40,7.72,US,1667771390
450,macklin,52.3334,-109.9348,-13.4,91,100,4.64,CA,1667771719
451,ambilobe,-13.2,49.05,22.17,81,6,2.42,MG,1667771720
452,roros,62.5747,11.3842,-1.09,100,40,0.0,NO,1667771720
453,half moon bay,37.4636,-122.4286,18.01,57,75,5.14,US,1667771721
454,mehamn,71.0357,27.8492,2.97,70,20,7.72,NO,1667771721
455,geraldton,-28.7667,114.6,17.23,72,100,4.12,AU,1667771722
456,qinhuangdao,39.9317,119.5883,8.69,69,65,2.92,CN,1667771722
457,chifeng,42.2683,118.9636,0.45,40,0,2.2,CN,1667771723
458,talbahat,25.05,78.4333,21.26,58,91,1.43,IN,1667771723
459,truth or consequences,33.1284,-107.2528,25.51,19,21,4.27,US,1667771723
460,esqueda,30.7167,-109.5833,22.75,18,1,4.4,MX,1667771724
461,gannan,47.9147,123.5031,-2.72,82,18,2.95,CN,1667771724
462,ariquemes,-9.9133,-63.0408,29.07,41,19,0.73,BR,1667771725
463,zdvinsk,54.7021,78.661,-1.42,92,97,5.26,RU,1667771725
464,loreto,22.2667,-101.9667,25.32,13,0,2.06,MX,1667771725
465,liku,-0.7275,119.8922,23.37,92,100,1.06,ID,1667771726
466,sens,48.1667,3.3333,11.87,93,96,6.79,FR,1667771726
467,ballina,-28.8667,153.5667,20.01,85,23,2.56,AU,1667771726
468,gravdal,68.1214,13.5031,1.94,80,0,5.14,NO,1667771728
469,honavar,14.2833,74.45,25.55,72,26,2.04,IN,1667771728
470,guerrero negro,27.9769,-114.0611,21.22,57,0,5.51,MX,1667771729
471,san jose,37.3394,-121.895,18.51,52,75,2.57,US,1667771368
472,surt,31.2089,16.5887,21.08,56,41,7.81,LY,1667771730
473,comodoro rivadavia,-45.8667,-67.5,26.92,18,0,7.2,AR,1667771731
474,arlit,18.7369,7.3853,23.77,16,3,2.88,NE,1667771731
475,kahului,20.8947,-156.47,28.8,76,100,3.13,US,1667771732
476,lata,40.1629,-8.3327,13.37,96,99,0.72,PT,1667771732
477,yerbogachen,61.2767,108.0108,-9.15,97,100,2.01,RU,1667771732
478,yueyang,29.3333,113.0919,14.9,65,0,1.25,CN,1667771733
479,matamoros,25.5333,-103.25,29.5,15,0,1.74,MX,1667771628
480,arman,59.7,150.1667,-4.99,78,100,4.53,RU,1667771733
481,cabadiangan,9.7531,122.4739,24.79,91,81,2.21,PH,1667771733
482,laguna de perlas,12.3429,-83.6712,28.05,84,35,2.08,NI,1667771734
483,svetlaya,46.5389,138.3297,0.16,57,1,3.56,RU,1667771734
484,beira,-19.8436,34.8389,26.05,89,40,4.12,MZ,1667771734
485,batemans bay,-35.7167,150.1833,18.39,67,91,0.83,AU,1667771735
486,katsuura,35.1333,140.3,16.73,59,100,3.56,JP,1667771735
487,ketchikan,55.3422,-131.6461,1.62,30,0,6.66,US,1667771735
488,marevo,57.3146,32.0804,1.64,98,100,2.71,RU,1667771736
489,atar,20.5169,-13.0499,27.5,13,100,3.47,MR,1667771736
490,bucerias,20.75,-105.3333,28.32,71,5,2.64,MX,1667771653
491,kumbo,6.2,10.6667,14.93,78,40,1.14,CM,1667771736
492,lebu,-37.6167,-73.65,12.64,76,46,5.39,CL,1667771737
493,poronaysk,49.2167,143.1167,-2.48,61,8,3.7,RU,1667771453
494,rio tercero,-32.173,-64.1141,27.11,17,29,5.74,AR,1667771737
495,pontes e lacerda,-15.2261,-59.3353,28.5,26,0,1.21,BR,1667771738
496,gushikawa,26.3544,127.8686,22.57,73,87,5.35,JP,1667771738
497,mantua,45.1667,10.7833,7.83,87,20,0.45,IT,1667771738
498,hobyo,5.3505,48.5268,26.43,76,18,3.17,SO,1667771739
499,samarai,-10.6167,150.6667,28.33,74,97,2.57,PG,1667771739
500,maningrida,-12.0667,134.2667,29.28,69,72,1.78,AU,1667771739
501,port-gentil,-0.7193,8.7815,24.98,94,20,1.03,GA,1667771740
502,krasnoarmeysk,51.0239,45.6969,2.43,61,100,1.3,RU,1667771740
503,srednekolymsk,67.45,153.6833,-25.96,99,58,2.93,RU,1667771741
504,hamilton,39.1834,-84.5333,22.55,37,45,0.89,US,1667771592
505,visby,57.6409,18.296,10.59,93,100,7.2,SE,1667771741
506,port moresby,-9.4431,147.1797,24.68,88,40,2.57,PG,1667771741
507,nuuk,64.1835,-51.7216,-5.07,62,3,9.39,GL,1667771742
508,kelvington,52.1667,-103.5343,-9.59,90,100,8.85,CA,1667771742
509,alice springs,-23.7,133.8833,18.75,26,4,0.0,AU,1667771534
510,inhambane,-23.865,35.3833,24.19,89,38,2.13,MZ,1667771743
511,santa cruz,-17.8,-63.1667,32.03,29,0,2.06,BO,1667771081
512,dunedin,-45.8742,170.5036,15.31,56,1,0.67,NZ,1667771698
513,whitehorse,60.7161,-135.0538,-13.57,51,40,4.63,CA,1667771729
514,the valley,18.217,-63.0578,28.08,83,40,7.2,AI,1667771743
515,hami,42.8,93.45,7.25,27,77,1.79,CN,1667771743
516,adrar,20.5022,-10.0711,24.71,15,85,3.28,MR,1667771744
517,wanning,18.8003,110.3967,22.21,91,94,3.92,CN,1667771744
518,mitsamiouli,-11.3847,43.2844,25.06,83,1,6.08,KM,1667771744
519,santa rosalia,27.3167,-112.2833,24.01,42,5,2.96,MX,1667771745
520,susurluk,39.9136,28.1578,14.35,54,100,1.21,TR,1667771745
521,hastings,50.8552,0.5729,14.6,92,16,12.3,GB,1667771745
522,kenora,49.8167,-94.4337,0.54,80,100,6.71,CA,1667771746
523,hauterive,46.0901,3.4459,10.42,77,25,2.8,FR,1667771746
524,quzhou,28.9594,118.8686,12.15,84,8,1.08,CN,1667771746
525,kalabo,-14.97,22.6814,22.04,72,100,1.42,ZM,1667771747
526,oksfjord,70.2396,22.3479,1.11,91,100,4.23,NO,1667771747
527,shihezi,44.3,86.0333,7.25,49,100,0.03,CN,1667771747
528,mangrol,21.1167,70.1167,25.83,60,8,3.08,IN,1667771748
529,howard,39.2504,-76.933,24.41,88,91,4.16,US,1667771701
530,verkhnyaya inta,65.9811,60.3094,-1.62,97,100,2.82,RU,1667771748
531,muisne,0.6,-80.0333,23.81,79,73,3.84,EC,1667771748
532,newport,51.5877,-2.9984,11.66,86,78,10.39,GB,1667771503
533,decatur,39.8403,-88.9548,19.89,52,0,5.66,US,1667771491
534,nioro,13.35,-15.75,25.73,47,31,2.53,GM,1667771749
535,creel,27.75,-107.6333,18.44,21,0,4.59,MX,1667771749
536,tucumcari,35.1717,-103.725,19.41,23,11,4.19,US,1667771749
537,dwarka,22.2394,68.9678,26.17,66,38,4.41,IN,1667771750
538,praia,14.9215,-23.5087,25.3,78,0,5.66,CV,1667771750
539,kushima,31.4583,131.2333,15.36,79,98,1.82,JP,1667771750
540,wajid,3.8093,43.2471,23.79,77,86,5.82,SO,1667771751
541,kozhva,65.1073,57.0459,0.17,98,100,2.32,RU,1667771751
542,moissala,8.3404,17.7663,23.51,44,78,1.57,TD,1667771751
543,amapa,1.0,-52.0,22.98,97,100,0.76,BR,1667771752
544,sorong,-0.8833,131.25,26.11,84,93,2.05,ID,1667771752
545,buribay,51.9617,58.1592,-6.03,93,36,4.37,RU,1667771752
546,bone,51.9669,12.1396,7.94,66,100,5.55,DE,1667771753
547,canyon,34.9803,-101.9188,20.02,38,25,4.59,US,1667771753
548,den helder,52.9599,4.7593,13.99,86,40,10.73,NL,1667771543
549,husavik,66.0449,-17.3389,3.57,88,100,3.1,IS,1667771753
550,lagoa,39.05,-27.9833,17.9,78,59,11.35,PT,1667771754
551,chumikan,54.7183,135.315,-4.58,72,100,9.53,RU,1667771754
552,kuzhorskaya,44.6751,40.3103,3.41,83,0,5.33,RU,1667771754
553,molochnoye,59.2917,39.6787,-0.17,97,100,4.6,RU,1667771755
554,canar,-2.55,-78.9333,17.02,84,86,0.69,EC,1667771755
555,beatrice,40.2681,-96.747,16.21,18,0,6.17,US,1667771755
556,bhimunipatnam,17.8833,83.4333,22.08,80,0,2.39,IN,1667771756
557,sao miguel do araguaia,-13.275,-50.1628,24.53,69,59,1.46,BR,1667771756
558,homer,59.6425,-151.5483,-2.33,49,48,8.05,US,1667771756
559,tete,-16.1564,33.5867,30.08,58,40,2.68,MZ,1667771757
560,aberdeen,57.1437,-2.0981,8.61,93,100,1.03,GB,1667771647
